[
{
"city": "Київ",
"addto": "Київ",
"zoomCity": 12,
"cityCoordinates": [
50.4504212701224,
30.523708236377523
],
"name": "вулиця Ялтинська, 56",
"tel": 9666666,
"time": "9:00-20:00",
"coordinates": [
50.43086945087807,
30.65333706762207
],
"urlCoodinates": "https://andimax.global/"
},
{
"city": "Київ",
"addto": "Київ",
"zoomCity": 12,
"cityCoordinates": [
50.4504212701224,
30.523708236377523
],
"name": "вулиця Академіка Булахоського, 5",
"tel": 22,
"time": "9:00-20:00",
"coordinates": [
50.469167,
30.336167
],
"urlCoodinates": "https://andimax.global/"
},
{
"city": "Київ",
"addto": "Київ",
"zoomCity": 12,
"cityCoordinates": [
50.4504212701224,
30.523708236377523
],
"name": "проспект Миколи Бажана, 1-О",
"tel": 3333,
"time": "9:00-21:00",
"coordinates": [
50.3989,
30.63313
],
"urlCoodinates": "https://andimax.global/"
},
{
"city": "Київ",
"addto": "Київ",
"zoomCity": 12,
"cityCoordinates": [
50.4504212701224,
30.523708236377523
],
"name": "вулиця Межова, 26",
"tel": "5,03E+08",
"time": "9:00-20:00",
"coordinates": [
50.509443,
30.432492
],
"urlCoodinates": "https://andimax.global/"
},
{
"city": "Київ",
"addto": "Київ",
"zoomCity": 12,
"cityCoordinates": [
50.4504212701224,
30.523708236377523
],
"name": "просп. Леся Курбаса, 6Г",
"tel": "5,03E+08",
"time": "9:00-20:00",
"coordinates": [
50.42971802944975,
30.383795713492496
],
"urlCoodinates": "https://andimax.global/"
},
{
"city": "Київ",
"addto": "Київ",
"zoomCity": 12,
"cityCoordinates": [
50.4504212701224,
30.523708236377523
],
"name": "вул. Ентузіастів 7",
"tel": "5,03E+08",
"time": "9:00-20:00",
"coordinates": [
50.43579,
30.60084
],
"urlCoodinates": "https://andimax.global/"
},
{
"city": "Київ",
"addto": "Київ",
"zoomCity": 12,
"cityCoordinates": [
50.4504212701224,
30.523708236377523
],
"name": "вул. Западинська 15А",
"tel": "5,03E+08",
"time": "9:00-20:00",
"coordinates": [
50.50724,
30.440458
],
"urlCoodinates": "https://andimax.global/"
},
{
"city": "Київ",
"addto": "Київ",
"zoomCity": 12,
"cityCoordinates": [
50.4504212701224,
30.523708236377523
],
"name": "вул. Олександра Довженка 1г",
"tel": "5,03E+08",
"time": "9:00-20:00",
"coordinates": [
50.45683367236083,
30.446288839843277
],
"urlCoodinates": "https://andimax.global/"
},
{
"city": "Київ",
"addto": "Київ",
"zoomCity": 12,
"cityCoordinates": [
50.4504212701224,
30.523708236377523
],
"name": "просп. Оболонський, 51 Б",
"tel": "5,03E+08",
"time": "9:00-20:00",
"coordinates": [
50.524047,
30.4991
],
"urlCoodinates": "https://andimax.global/"
},
{
"city": "Київ",
"addto": "Київ",
"zoomCity": 12,
"cityCoordinates": [
50.4504212701224,
30.523708236377523
],
"name": "просп. Романа Шухевича,12",
"tel": "5,03E+08",
"time": "9:00-20:00",
"coordinates": [
50.494948,
30.581852
],
"urlCoodinates": "https://andimax.global/"
},
{
"city": "Київ",
"addto": "Київ",
"zoomCity": 12,
"cityCoordinates": [
50.4504212701224,
30.523708236377523
],
"name": "вул. Метрополита Шептицького, 22",
"tel": "5,03E+08",
"time": "9:00-20:00",
"coordinates": [
50.456394,
30.593747
],
"urlCoodinates": "https://andimax.global/"
},
{
"city": "Київ",
"addto": "Київ",
"zoomCity": 12,
"cityCoordinates": [
50.4504212701224,
30.523708236377523
],
"name": "вулиця Сюсюри, 3",
"tel": "5,03E+08",
"time": "09:00-20:00",
"coordinates": [
50.443498,
30.628268
],
"urlCoodinates": "https://andimax.global/"
},
{
"city": "Київ",
"addto": "Київ",
"zoomCity": 12,
"cityCoordinates": [
50.4504212701224,
30.523708236377523
],
"name": "проспект Червоної Калини, 17",
"tel": "5,03E+08",
"time": "09:00-20:00",
"coordinates": [
50.502243,
30.5929
],
"urlCoodinates": "https://andimax.global/"
},
{
"city": "Київ",
"addto": "Київ",
"zoomCity": 12,
"cityCoordinates": [
50.4504212701224,
30.523708236377523
],
"name": "вулиця Данила Щербаківського, 53",
"tel": "5,03E+08",
"time": "09:00-20:00",
"coordinates": [
50.475927,
30.405098
],
"urlCoodinates": "https://andimax.global/"
}
]
